City_ID,City,Lat,Lng,Max Temp,Humidity,Cloudiness,Wind Speed,Country,Date
0,saipan,15.1355,145.701,28.39,83,40,5.14,MP,1729306571
1,waitangi,-43.9535,-176.5597,12.68,91,4,2.24,NZ,1729306572
2,sinabang,2.4803,96.3801,28.92,70,41,2.01,ID,1729306573
3,severo-yeniseyskiy,60.3725,93.0408,-5.04,93,98,1.67,RU,1729306574
4,bethel,41.3712,-73.414,10.12,72,0,0.0,US,1729306576
5,corumba,-19.0092,-57.6533,22.63,94,89,2.94,BR,1729306577
6,ilgaz,40.9251,33.6259,3.27,94,97,1.71,TR,1729306518
7,frondenberg,51.4667,7.7667,15.02,92,100,4.12,DE,1729306579
8,whitehorse,60.7161,-135.0538,-6.57,85,100,4.12,CA,1729306580
9,punta arenas,-53.15,-70.9167,9.06,81,100,3.6,CL,1729306506
10,keflavik,64.0049,-22.5624,5.24,100,100,7.72,IS,1729306583
11,ciudad de chiautla de tapia,18.2981,-98.6053,20.73,68,78,1.53,MX,1729306584
12,puerto natales,-51.7236,-72.4875,6.63,96,100,2.03,CL,1729306585
13,fort bragg,35.139,-79.006,11.0,80,0,0.0,US,1729306586
14,talnakh,69.4865,88.3972,-5.45,96,100,3.58,RU,1729306581
15,adamstown,-25.066,-130.1015,21.64,78,76,6.38,PN,1729306589
16,puerto baquerizo moreno,-0.9,-89.6,20.71,86,89,4.78,EC,1729306321
17,cabedelo,-6.9811,-34.8339,26.37,80,13,5.91,BR,1729306591
18,chilmari,25.5559,89.6715,26.4,73,0,4.08,BD,1729306592
19,edinburgh of the seven seas,-37.0676,-12.3116,11.75,64,84,2.8,SH,1729306593
20,susuman,62.7833,148.1667,-11.65,85,100,1.44,RU,1729306595
21,ushuaia,-54.8,-68.3,8.81,57,0,1.03,AR,1729306522
22,la passe,45.5549,-0.8967,15.31,93,100,3.77,FR,1729306597
23,antonio enes,-16.2325,39.9086,21.67,82,0,1.3,MZ,1729306598
24,pisco,-13.7,-76.2167,18.03,88,100,2.06,PE,1729306600
25,tiksi,71.6872,128.8694,-10.84,97,91,2.2,RU,1729306601
26,midvagur,62.0511,-7.1939,10.46,93,100,8.23,FO,1729306602
27,port-aux-francais,-49.35,70.2167,4.25,95,100,16.17,TF,1729306603
28,puerto real,36.5282,-6.1901,18.09,94,0,2.57,ES,1729306606
29,tura,25.5198,90.2201,26.1,72,2,0.58,IN,1729306607
30,naze,28.3667,129.4833,27.51,72,0,1.06,JP,1729306608
31,vyetka,52.5591,31.1794,-1.92,100,6,2.0,BY,1729306609
32,olonkinbyen,70.9221,-8.7187,2.07,99,100,7.27,SJ,1729306610
33,flying fish cove,-10.4217,105.6791,26.82,73,75,4.63,CX,1729306612
34,suncho corral,-27.9336,-63.4294,20.58,79,100,2.04,AR,1729306613
35,ilulissat,69.2167,-51.1,-7.99,73,100,2.57,GL,1729306614
36,mount isa,-20.7333,139.5,34.87,31,14,3.09,AU,1729306615
37,vernon,50.2581,-119.2691,6.36,84,100,2.06,CA,1729306616
38,curuzu cuatia,-29.7917,-58.0546,17.07,71,2,3.64,AR,1729306468
39,huarmey,-10.0681,-78.1522,18.23,82,96,3.41,PE,1729306391
40,bikenibeu village,1.3673,173.1241,30.98,74,40,3.6,KI,1729306620
41,aasiaat,68.7098,-52.8699,-11.3,71,26,2.87,GL,1729306621
42,blackmans bay,-43.0167,147.3167,18.62,66,0,5.96,AU,1729306622
43,grytviken,-54.2811,-36.5092,1.5,94,100,3.48,GS,1729306624
44,onega,63.9061,38.1404,6.79,91,100,3.92,RU,1729306625
45,yekaterinovka,52.0508,44.3451,2.84,96,100,6.57,RU,1729306626
46,bredasdorp,-34.5322,20.0403,10.56,89,36,1.81,ZA,1729306627
47,papatowai,-46.5619,169.4708,16.15,63,99,5.19,NZ,1729306628
48,mokrous,51.2333,47.5167,5.38,91,100,6.82,RU,1729306630
49,waxahachie,32.3865,-96.8483,20.76,59,75,2.06,US,1729306350
50,wailua homesteads,22.0669,-159.378,26.44,92,100,3.09,US,1729306632
51,qaqortoq,60.7167,-46.0333,-1.02,45,0,1.88,GL,1729306633
52,albany,42.6001,-73.9662,7.47,66,0,1.81,US,1729306521
53,klyuchi,52.2667,79.1667,3.07,54,69,2.26,RU,1729306635
54,lae,-6.7221,146.9847,26.68,72,100,3.36,PG,1729306637
55,taoudenni,22.6783,-3.9836,31.64,21,34,4.92,ML,1729306638
56,formosa,-26.1775,-58.1781,19.99,98,0,0.0,AR,1729306639
57,bilibino,68.0546,166.4372,-3.25,96,100,2.22,RU,1729306640
58,san kamphaeng,18.7449,99.1195,29.01,86,40,1.54,TH,1729306641
59,pytalovo,57.0679,27.9138,2.47,66,11,2.81,RU,1729306643
60,remire-montjoly,4.9167,-52.2667,25.02,94,0,0.51,GF,1729306644
61,cabo san lucas,22.8909,-109.9124,24.86,70,0,3.13,MX,1729306398
62,erenhot,43.6475,111.9767,0.31,21,77,7.06,CN,1729306646
63,hawaiian paradise park,19.5933,-154.9731,27.73,76,0,3.09,US,1729306647
64,northam,51.0333,-4.2167,13.12,98,100,3.97,GB,1729306648
65,tamanrasset,22.785,5.5228,20.95,30,40,1.54,DZ,1729306650
66,college,64.8569,-147.8028,-8.03,85,75,2.06,US,1729306651
67,adrar,20.5022,-10.0711,30.57,20,100,7.2,MR,1729306652
68,atafu village,-8.5421,-172.5159,28.48,73,79,5.33,TK,1729306653
69,moama,-36.1167,144.7833,23.99,30,0,7.19,AU,1729306654
70,stanley,54.868,-1.6985,11.01,95,20,2.57,GB,1729306656
71,tsiombe,-25.3,45.4833,20.01,84,5,1.11,MG,1729306657
72,alajarvi,63.0,23.8167,9.28,91,100,3.62,FI,1729306659
73,maragogi,-9.0122,-35.2225,24.36,78,77,3.89,BR,1729306660
74,chonchi,-42.6128,-73.8092,8.95,93,100,0.18,CL,1729306662
75,roswell,34.0232,-84.3616,10.95,80,0,0.0,US,1729306421
76,iqaluit,63.7506,-68.5145,-2.15,74,75,5.14,CA,1729306664
77,ribeira grande,38.5167,-28.7,22.1,92,99,8.05,PT,1729306665
78,mumford,5.2618,-0.759,24.33,91,74,4.32,GH,1729306666
79,nonoichi,36.5333,136.6167,24.88,83,100,6.74,JP,1729306667
80,namibe,-15.1961,12.1522,20.45,86,58,1.27,AO,1729306669
81,kununurra,-15.7667,128.7333,37.99,34,82,2.57,AU,1729306670
82,aleg,17.0481,-13.9209,32.02,33,32,3.17,MR,1729306671
83,teknaf,20.8624,92.3058,28.82,70,86,2.91,BD,1729306672
84,kingston,17.997,-76.7936,29.53,74,20,1.03,JM,1729306127
85,carnarvon,-24.8667,113.6333,24.6,55,67,5.95,AU,1729306676
86,namasuba,0.6894,32.4214,16.49,99,88,0.2,UG,1729306677
87,kapa'a,22.0752,-159.319,27.18,92,100,3.09,US,1729306678
88,crane,31.3974,-102.3501,18.67,78,98,12.19,US,1729306680
89,terbanggi besar,-4.8667,105.2333,31.59,51,31,2.41,ID,1729306681
90,tolanaro,-25.0319,46.9987,21.04,83,20,6.17,MG,1729306682
91,east london,-33.0153,27.9116,15.91,89,88,2.04,ZA,1729306683
92,georgetown,5.4112,100.3354,29.97,76,20,1.54,MY,1729306406
93,kiwira,-9.1667,33.5333,18.36,84,56,0.54,TZ,1729306687
94,dudinka,69.4058,86.1778,-6.86,97,96,1.76,RU,1729306688
95,manokwari,-0.8667,134.0833,29.17,66,89,2.53,ID,1729306577
96,solnechnyy,50.7214,136.6319,-2.9,80,100,7.03,RU,1729306690
97,yarmouth,41.7057,-70.2286,11.65,76,0,4.02,US,1729306691
98,badger,64.8,-147.5333,-7.86,89,75,2.06,US,1729306692
99,betio village,1.358,172.9211,31.02,74,6,3.45,KI,1729306694
100,plasencia,40.0312,-6.0885,12.91,93,100,1.85,ES,1729306695
101,lebu,-37.6167,-73.65,9.9,96,90,2.61,CL,1729306696
102,latimer,30.5346,-88.8667,15.94,72,0,1.54,US,1729306697
103,al kharijah,25.4514,30.5464,19.98,52,0,2.69,EG,1729306698
104,lugovoye,42.9094,72.7178,8.83,41,86,1.42,KZ,1729306700
105,teguise,29.0605,-13.564,17.12,82,1,3.09,ES,1729306701
106,la rioja,42.25,-2.5,7.88,78,100,1.19,ES,1729306449
107,fale old settlement,-9.3852,-171.2468,28.48,73,58,6.72,TK,1729306703
108,alotau,-10.3069,150.4462,29.44,66,87,3.48,PG,1729306704
109,saldanha,-33.0117,17.9442,10.03,79,54,9.07,ZA,1729306706
110,iskateley,67.6803,53.1512,6.39,94,100,6.74,RU,1729306707
111,zhalantun,48.0,122.7167,1.33,15,0,7.7,CN,1729306708
112,ban nong wua so,17.2675,103.2247,28.68,71,98,2.0,TH,1729306709
113,ciro marina,39.3732,17.126,20.58,88,100,7.82,IT,1729306710
114,arraial do cabo,-22.9661,-42.0278,22.19,84,99,1.88,BR,1729306712
115,misratah,32.3754,15.0925,23.71,77,100,6.36,LY,1729306713
116,conception bay south,47.4999,-52.9981,5.97,73,56,7.51,CA,1729306714
117,hadibu,12.65,54.0333,26.09,79,88,1.5,YE,1729306715
118,nicoya,10.1483,-85.452,24.26,96,100,0.31,CR,1729306716
119,kolonia,50.9333,6.95,15.07,92,100,1.54,DE,1729306546
120,herval,-32.0236,-53.3956,12.29,99,24,1.74,BR,1729306719
121,prince rupert,54.3161,-130.3201,8.83,99,100,8.75,CA,1729306720
122,los palacios y villafranca,37.1618,-5.9243,18.35,89,88,1.31,ES,1729306721
123,chul'man,56.8479,124.9104,-9.73,76,96,3.57,RU,1729306695
124,kolwezi,-10.7148,25.4667,16.75,89,8,0.6,CD,1729306723
125,khorixas,-20.3667,14.9667,17.33,30,0,0.59,NA,1729306725
126,gadzhiyevo,69.2551,33.3362,6.5,86,53,5.63,RU,1729306726
127,aban,56.67,96.06,-0.67,69,100,3.36,RU,1729306727
128,yemetsk,63.4721,41.7941,5.87,86,100,3.14,RU,1729306728
129,puerto ayora,-0.7393,-90.3518,20.86,94,84,3.58,EC,1729306729
130,kodiak,57.79,-152.4072,2.73,48,0,7.2,US,1729306731
131,rio verde,21.9333,-99.9833,16.96,92,8,0.99,MX,1729306732
132,lemvig,56.5486,8.3102,12.46,92,100,4.66,DK,1729306733
133,lubang,13.8584,120.124,28.97,77,61,6.02,PH,1729306734
134,alpine,32.835,-116.7664,15.07,76,26,0.82,US,1729306735
135,bamboo flat,11.7,92.7167,28.05,83,75,1.03,IN,1729306737
136,poshekhon'ye,58.4993,39.1353,4.0,95,100,2.34,RU,1729306738
137,yellowknife,62.456,-114.3525,-4.69,97,20,2.57,CA,1729306629
138,celestun,20.8667,-90.4,26.41,83,98,8.61,MX,1729306741
139,turan,16.0678,108.2208,29.99,70,40,1.03,VN,1729306743
140,miranda do corvo,40.0932,-8.3326,15.41,95,100,1.09,PT,1729306744
141,estevan,49.1334,-102.9842,5.12,56,0,4.12,CA,1729306712
142,beloyarskiy,63.7119,66.6722,-0.8,92,78,2.75,RU,1729306746
143,manadhoo,5.7667,73.3833,28.08,74,97,5.2,MV,1729306748
144,port elizabeth,-33.918,25.5701,14.62,99,75,1.03,ZA,1729306749
145,port alfred,-33.5906,26.891,13.99,95,95,0.45,ZA,1729306750
146,isafjordur,66.0755,-23.124,3.89,96,100,9.19,IS,1729306751
147,nemuro,43.3236,145.575,19.38,91,100,19.27,JP,1729306507
148,kavarna,43.4333,28.3333,5.32,79,3,6.13,BG,1729306753
149,rongelap,11.1635,166.8941,27.97,80,82,6.13,MH,1729306755
150,kashgar,39.4547,75.9797,13.56,15,0,5.0,CN,1729306756
151,ocean shores,46.9737,-124.1563,12.23,97,100,12.35,US,1729306757
152,taulaga,-11.0553,-171.0883,27.99,75,26,4.47,AS,1729306758
153,bella union,-30.2752,-57.6007,16.07,78,0,3.33,UY,1729306607
154,mo i rana,66.3128,14.1428,6.85,93,84,1.54,NO,1729306761
155,thompson,55.7435,-97.8558,5.09,75,75,2.06,CA,1729306762
156,mandello del lario,45.9192,9.3193,14.91,84,100,1.54,IT,1729306763
157,padang,-0.9492,100.3543,29.03,71,25,1.8,ID,1729306609
158,srivardhan,18.0333,73.0167,26.85,83,100,3.06,IN,1729306765
159,moussoro,13.6408,16.4901,29.93,23,30,3.15,TD,1729306766
160,kangding,30.0513,101.9603,10.86,91,98,1.43,CN,1729306768
161,port augusta,-32.5,137.7667,22.65,30,14,5.1,AU,1729306769
162,rio grande,-32.035,-52.0986,16.71,94,63,3.41,BR,1729306770
163,igarka,67.4667,86.5833,-4.71,97,99,2.48,RU,1729306771
164,avarua,-21.2078,-159.775,23.03,73,75,5.66,CK,1729306772
165,castillos,-34.1667,-53.8333,12.05,85,0,0.75,UY,1729306774
166,hermanus,-34.4187,19.2345,13.54,75,82,2.91,ZA,1729306775
167,lihue,21.9789,-159.3672,26.77,78,100,3.09,US,1729306776
168,west island,-12.1568,96.8225,27.99,65,40,3.6,CC,1729306777
169,konstantinovka,49.6167,127.9833,-0.52,27,0,8.36,RU,1729306778
170,valday,57.9747,33.2525,2.6,94,61,1.95,RU,1729306779
171,taroa,8.7058,171.2275,28.68,77,100,5.34,MH,1729306781
172,nuku'alofa,-21.1333,-175.2,23.19,94,100,1.54,TO,1729306783
173,margaret river,-33.95,115.0667,18.78,67,99,7.17,AU,1729306784
174,hamilton,39.1834,-84.5333,12.21,71,0,1.34,US,1729306709
175,qurayyat,31.3318,37.3428,15.1,58,0,0.0,SA,1729306787
176,yebaishou,41.3975,119.6408,3.5,18,2,9.15,CN,1729306789
177,tabou,4.423,-7.3528,24.26,83,90,3.05,CI,1729306790
178,sheridan,44.8333,-106.9173,5.57,77,24,0.45,US,1729306791
179,sibut,5.718,19.0739,21.25,97,100,1.18,CF,1729306793
180,nuuk,64.1835,-51.7216,-2.29,58,2,8.94,GL,1729306629
181,luganville,-15.5333,167.1667,27.27,58,6,3.71,VU,1729306563
182,kampong cham,11.9934,105.4635,28.73,76,100,3.04,KH,1729306796
183,morrope,-6.5417,-80.0111,17.53,84,83,5.76,PE,1729306797
184,lazaro cardenas,17.9583,-102.2,26.41,88,0,1.87,MX,1729306799
185,afaahiti,-17.75,-149.2833,24.73,83,95,4.8,PF,1729306800
186,valentin gomez farias,28.2167,-106.5833,15.57,48,5,5.87,MX,1729306802
187,ta`u,-14.2336,-169.5144,27.32,76,100,3.55,AS,1729306803
188,port mathurin,-19.6833,63.4167,23.26,74,22,7.92,MU,1729306804
189,egilsstadir,65.2653,-14.3948,9.95,71,75,9.26,IS,1729306805
190,villanueva,15.3167,-88.0,25.55,94,75,2.06,HN,1729306807
191,kapuskasing,49.4169,-82.4331,16.0,39,0,6.17,CA,1729306382
192,alofi,-19.0595,-169.9187,23.94,94,75,3.6,NU,1729306809
193,katsuren-haebaru,26.3369,127.8719,31.43,66,40,3.09,JP,1729306810
194,scottburgh,-30.2867,30.7532,18.35,78,97,3.16,ZA,1729306812
195,invercargill,-46.4,168.35,19.45,58,99,3.58,NZ,1729306813
196,lebyazh'ye,55.2689,66.4947,0.56,73,46,1.88,RU,1729306814
197,bardai,11.65,7.2333,21.82,84,73,2.75,NG,1729306815
198,baringo,0.4667,35.9667,20.61,80,97,1.1,KE,1729306818
199,ponta delgada,37.7333,-25.6667,21.4,88,40,7.72,PT,1729306819
200,ha tinh,18.3333,105.9,29.4,72,75,1.41,VN,1729306820
201,piriapolis,-34.8682,-55.2744,14.09,80,0,2.57,UY,1729306821
202,cova figueira,14.8905,-24.2934,22.36,67,100,1.64,CV,1729306822
203,kiffa,16.6166,-11.4045,32.62,33,82,2.16,MR,1729306824
204,ta'izz,13.5,44.0,20.25,68,58,0.86,YE,1729306825
205,sao jose da coroa grande,-8.8978,-35.1478,24.78,76,79,4.38,BR,1729306826
206,vizinga,61.0749,50.1031,2.9,82,100,3.37,RU,1729306827
207,qusmuryn,52.4503,64.6311,4.68,63,69,2.49,KZ,1729306828
208,ha'il,27.5219,41.6907,19.01,32,20,2.06,SA,1729306829
209,kourou,5.1552,-52.6478,26.16,81,2,2.4,GF,1729306831
210,zarghun shahr,32.8473,68.4457,11.99,24,0,1.17,AF,1729306832
211,canico,32.6333,-16.85,20.35,84,75,3.6,PT,1729306833
212,jamestown,42.097,-79.2353,8.8,95,0,1.54,US,1729306715
213,the pas,53.8251,-101.2541,4.01,60,75,2.06,CA,1729306835
214,sonoita,31.85,-112.8333,16.35,21,0,2.36,MX,1729306837
215,sabang,5.8933,95.3214,27.92,81,95,10.89,ID,1729306838
216,sitka,57.0531,-135.33,6.68,95,100,1.49,US,1729306839
217,mezhdurechensk,53.6942,88.0603,0.39,84,100,1.3,RU,1729306840
218,st. john's,47.5649,-52.7093,6.1,72,100,6.17,CA,1729306819
219,kruisfontein,-34.0033,24.7314,11.68,92,54,2.87,ZA,1729306842
220,sao tome,0.3365,6.7273,25.91,76,94,2.54,ST,1729306844
221,kavieng,-2.5744,150.7967,29.43,69,100,1.88,PG,1729306845
222,puquio,-14.7,-74.1333,10.39,39,3,0.65,PE,1729306846
223,kpandae,8.4689,-0.0113,23.44,89,96,1.79,GH,1729306847
224,kavaratti,10.5669,72.642,27.24,83,27,3.47,IN,1729306848
225,utrik,11.2278,169.8474,27.88,81,100,5.78,MH,1729306849
226,beardstown,40.0176,-90.4243,12.09,62,0,3.51,US,1729306851
227,onsong,42.9572,129.9933,4.73,24,0,8.01,KP,1729306852
228,whakatane,-37.9585,176.9854,18.06,74,100,2.24,NZ,1729306853
229,hithadhoo,-0.6,73.0833,28.31,67,47,4.57,MV,1729306854
230,oppdal,62.5943,9.6912,5.56,88,77,5.93,NO,1729306855
231,ancud,-41.8697,-73.8203,9.71,89,100,1.4,CL,1729306806
232,codrington,-38.2667,141.9667,15.75,72,67,5.01,AU,1729306858
233,pontian kechil,1.4866,103.3896,28.38,77,91,1.13,MY,1729306859
234,centenario,-38.8043,-68.14,16.86,59,0,1.03,AR,1729306803
235,qamdo,31.1667,97.2333,6.13,50,100,2.84,CN,1729306833
236,pimenta bueno,-11.6725,-61.1936,22.72,97,100,1.15,BR,1729306863
237,asau,46.4333,26.4,1.05,88,11,1.29,RO,1729306864
238,alice springs,-23.7,133.8833,29.75,26,0,5.66,AU,1729306865
239,longyearbyen,78.2186,15.6401,0.91,75,20,3.6,SJ,1729306866
240,shache,38.4167,77.2406,15.2,12,41,1.14,CN,1729306868
241,kill devil hills,36.0307,-75.676,17.77,64,0,5.14,US,1729306869
242,kargil,34.5667,76.1,2.61,45,2,0.8,IN,1729306870
243,yelizovo,53.1873,158.3805,5.08,75,75,4.0,RU,1729306871
244,senillosa,-39.0,-68.4167,16.88,23,96,1.14,AR,1729306813
245,souillac,-20.5167,57.5167,21.21,94,40,1.54,MU,1729306874
246,kerikeri,-35.2268,173.9474,15.17,85,99,3.91,NZ,1729306875
247,mount gambier,-37.8333,140.7667,18.34,53,41,4.18,AU,1729306876
248,holualoa,19.6228,-155.9522,25.48,85,44,2.76,US,1729306877
249,kiruna,67.8557,20.2251,1.51,93,95,3.09,SE,1729306878
250,rabaul,-4.1967,152.1721,29.76,70,99,4.93,PG,1729306880
251,caleta de carquin,-11.0925,-77.6267,17.29,84,12,3.23,PE,1729306881
252,mattighofen,48.1031,13.1503,13.1,84,100,0.95,AT,1729306883
253,guichon,-32.35,-57.2,15.93,86,0,3.23,UY,1729306884
254,quiberon,47.4841,-3.1196,16.22,85,100,9.5,FR,1729306886
255,port lincoln,-34.7333,135.8667,17.26,60,67,4.12,AU,1729306887
256,ust-nera,64.5667,143.2,-10.71,87,100,1.54,RU,1729306888
257,ibotirama,-12.1853,-43.2206,23.44,87,100,0.7,BR,1729306889
258,polyarnyy,69.1989,33.4478,6.45,86,53,5.16,RU,1729306891
259,greymouth,-42.4667,171.2,16.31,58,34,3.22,NZ,1729306892
260,tazovsky,67.4667,78.7,-2.74,97,95,3.01,RU,1729306893
261,pasuquin,18.3328,120.6177,31.97,74,20,3.09,PH,1729306895
262,skovorodino,53.9833,123.9167,-3.94,36,15,3.57,RU,1729306896
263,smithers,54.7804,-127.1743,2.18,100,100,2.57,CA,1729306897
264,kharp,66.8014,65.8081,0.59,99,100,2.62,RU,1729306899
265,mbamba bay,-11.2833,34.7667,24.31,73,94,1.53,TZ,1729306900
266,puerto cabezas,14.0351,-83.3888,25.45,92,100,2.19,NI,1729306802
267,opuwo,-18.0607,13.84,18.1,32,22,0.94,NA,1729306902
268,meadow lakes,61.6247,-149.6011,0.4,39,0,2.68,US,1729306903
269,rada tilly,-45.9333,-67.5333,11.27,50,0,1.54,AR,1729306905
270,can tho,10.0333,105.7833,30.99,74,40,0.0,VN,1729306907
271,viedma,-40.8135,-62.9967,16.37,54,87,4.88,AR,1729306877
272,bassila,9.0081,1.6654,21.75,93,91,1.01,BJ,1729306909
273,udachny,66.4167,112.4,-10.14,92,100,2.54,RU,1729306911
274,phan rang-thap cham,11.5667,108.9833,30.0,64,100,0.76,VN,1729306912
275,tazacorte,28.629,-17.9293,21.54,85,100,5.14,ES,1729306913
276,al ghayzah,16.2079,52.176,26.58,79,93,3.02,YE,1729306914
277,sarai,53.7458,41.0213,1.86,83,91,5.67,RU,1729306915
278,anadyr,64.75,177.4833,4.28,86,20,7.6,RU,1729306677
279,bondoukou,8.0333,-2.8,21.35,99,57,1.76,CI,1729306918
280,waingapu,-9.6567,120.2641,30.79,59,90,6.13,ID,1729306919
281,borovskoy,53.8,64.15,1.42,72,27,1.87,KZ,1729306920
282,tubarjal,30.4999,38.216,19.11,47,0,4.42,SA,1729306921
283,kramfors,62.9316,17.7765,8.89,93,100,2.57,SE,1729306923
284,smirnovo,54.5125,69.4222,0.87,67,68,2.28,KZ,1729306924
285,plettenberg bay,-34.0527,23.3716,13.74,87,67,1.93,ZA,1729306925
286,lodja,-3.4833,23.4333,20.55,98,44,0.22,CD,1729306926
287,kotel'nikovo,47.6317,43.1461,5.32,84,100,3.57,RU,1729306927
288,luena,-11.7833,19.9167,16.59,90,92,1.66,AO,1729306928
289,pontotoc,34.2479,-88.9987,8.78,51,53,2.8,US,1729306930
290,bako,5.7833,36.5667,16.96,89,97,1.88,ET,1729306931
291,san patricio,28.017,-97.5169,24.12,66,15,4.8,US,1729306932
292,malvan,16.0667,73.4667,26.73,83,100,4.03,IN,1729306933
293,vorgashor,67.5833,63.95,0.03,99,100,7.97,RU,1729306824
294,vadso,70.0744,29.7487,6.09,81,20,4.12,NO,1729306936
295,la pobla de vallbona,39.6,-0.55,14.71,62,0,2.57,ES,1729306938
296,le perray-en-yvelines,48.6944,1.8564,10.4,96,0,3.6,FR,1729306939
297,guiuan,11.0333,125.7247,28.35,78,10,1.22,PH,1729306942
298,ak-dovurak,51.1833,90.6,-0.4,94,100,0.4,RU,1729306674
299,kone,-21.0595,164.8658,28.41,41,1,5.33,NC,1729306944
300,new norfolk,-42.7826,147.0587,18.73,33,0,2.21,AU,1729306945
301,beroroha,-21.6667,45.1667,20.95,75,0,0.72,MG,1729306947
302,shashemene,7.2,38.6,14.11,85,99,1.95,ET,1729306948
303,arish,31.1316,33.7984,21.69,64,0,3.36,EG,1729306949
304,oakdale,44.963,-92.9649,18.64,42,20,6.17,US,1729306950
305,saint-pierre,-21.3393,55.4781,22.82,73,100,1.03,RE,1729306951
306,hohhot,40.8106,111.6522,6.16,22,0,7.0,CN,1729306918
307,okhotsk,59.3833,143.3,-5.43,55,57,9.2,RU,1729306954
308,damulog,7.4836,124.9431,29.44,69,96,1.15,PH,1729306955
309,belle fourche,44.6714,-103.8522,7.4,79,70,2.01,US,1729306956
310,jayapura,-2.5333,140.7,28.66,81,96,2.47,ID,1729306957
311,san jose de jachal,-30.2406,-68.7469,22.65,54,0,1.49,AR,1729306958
312,novyy urgal,51.0736,132.5642,0.73,32,65,7.05,RU,1729306961
313,bamiantong,44.9333,130.5333,1.19,28,4,8.62,CN,1729306962
314,alghero,40.5589,8.3181,14.05,94,0,1.03,IT,1729306963
315,kodinar,20.7903,70.7031,28.78,77,94,3.69,IN,1729306964
316,dryden,49.7833,-92.7503,8.16,87,100,2.06,CA,1729306966
317,calvinia,-31.4707,19.776,7.98,88,7,1.59,ZA,1729306958
318,markaz-e hukumat-e darweshan,31.1323,64.1934,21.82,19,0,1.31,AF,1729306969
319,kiunga,-6.1219,141.2906,28.09,88,100,1.14,PG,1729306970
320,iranshahr,27.2025,60.6848,25.19,16,0,3.09,IR,1729306972
321,bir el ater,34.7449,8.0602,13.47,55,7,5.01,DZ,1729306973
322,nanao,37.05,136.9667,22.39,93,100,8.14,JP,1729306974
323,magadan,59.5667,150.8,-3.28,82,100,4.14,RU,1729306975
324,enewetak,11.3474,162.3373,28.68,75,95,7.26,MH,1729306977
325,luderitz,-26.6481,15.1594,14.5,71,1,7.43,NA,1729306978
326,tynda,55.1667,124.7167,-7.25,57,19,4.19,RU,1729306979
327,sakaiminato,35.55,133.2333,23.99,100,75,1.54,JP,1729306980
328,maintirano,-18.0667,44.0167,22.68,76,1,3.07,MG,1729306982
329,tra mhor,52.1624,-7.1524,10.05,93,0,1.79,IE,1729306983
330,imbituba,-28.24,-48.6703,17.37,89,100,1.07,BR,1729306984
331,hammerfest,70.6634,23.6821,9.25,93,100,7.72,NO,1729306985
332,yanam,16.7333,82.2167,28.36,84,62,1.85,IN,1729306987
333,inarajan village,13.2736,144.7484,29.66,86,100,5.89,GU,1729306988
334,tarnogskiy gorodok,60.4997,43.5761,3.17,86,95,2.99,RU,1729306989
335,san andres,12.5847,-81.7006,29.01,84,20,3.09,CO,1729306816
336,turpan,42.9333,89.1667,14.8,38,20,1.45,CN,1729306993
337,tralee,52.2704,-9.7026,9.58,88,12,3.51,IE,1729306994
338,juneau,58.3019,-134.4197,2.28,100,100,2.37,US,1729306808
339,macherla,16.4833,79.4333,26.27,83,100,1.08,IN,1729306996
340,singkil,-7.9855,111.4161,33.38,46,67,2.42,ID,1729306997
341,cesky krumlov,48.8109,14.3152,9.87,87,100,1.51,CZ,1729306998
342,porto murtinho,-21.6989,-57.8825,22.29,93,100,2.34,BR,1729307000
343,uturoa,-16.7333,-151.4333,26.65,78,89,4.99,PF,1729307001
344,bel ombre,-4.6167,55.4167,27.91,78,40,4.63,SC,1729307002
345,nangomba,-10.9,38.5,22.5,81,1,1.68,TZ,1729307003
346,dawei,14.0833,98.2,26.06,92,98,1.46,MM,1729307004
347,samut prakan,13.5,100.45,28.21,79,100,3.48,TH,1729307005
348,santa elena de uairen,4.6167,-61.1333,21.85,70,91,1.6,VE,1729307007
349,mahina,-17.5065,-149.489,28.87,65,40,2.57,PF,1729307008
350,macapa,0.0389,-51.0664,27.99,83,20,3.6,BR,1729306872
351,reyes,-14.3167,-67.3833,27.65,52,67,0.73,BO,1729307013
352,huicheng,23.0385,116.2899,30.11,65,11,2.78,CN,1729306846
353,carbonear,47.7332,-53.2148,5.56,69,13,6.85,CA,1729307015
354,kailua-kona,19.6406,-155.9956,27.55,87,39,2.68,US,1729307017
355,potoci,43.4086,17.8786,15.73,100,20,1.54,BA,1729307018
356,touros,-5.1989,-35.4608,25.25,78,16,5.05,BR,1729307019
357,aykhal,66.0,111.5,-9.57,93,100,3.02,RU,1729307020
358,choix,26.7092,-108.3219,24.45,54,0,1.03,MX,1729307021
359,constantia,44.1833,28.65,4.38,62,1,6.34,RO,1729306724
360,saint-joseph,-21.3667,55.6167,22.21,85,53,3.17,RE,1729307024
361,leua,48.2156,18.6071,6.57,54,76,3.04,SK,1729307025
362,pocone,-16.2567,-56.6228,27.02,66,100,2.58,BR,1729307026
363,petropavlovsk-kamchatsky,53.0452,158.6483,4.33,75,75,4.0,RU,1729307027
364,plaza huincul,-38.926,-69.2086,20.08,10,94,4.02,AR,1729307028
365,wahpeton,46.2652,-96.6059,10.01,100,100,4.63,US,1729307030
366,krasnopavlivka,49.1372,36.3272,4.58,93,100,5.71,UA,1729307031
367,gibraleon,37.3763,-6.969,17.28,83,100,3.94,ES,1729307032
368,bay roberts,47.5999,-53.2648,5.51,70,7,1.34,CA,1729307033
369,jalapa,19.5333,-96.9167,15.77,99,99,0.3,MX,1729306826
370,paramonga,-10.6667,-77.8333,17.43,84,49,3.61,PE,1729307037
371,nabire,-3.3667,135.4833,31.4,56,31,2.46,ID,1729307038
372,bubaque,11.2833,-15.8333,26.2,79,100,3.03,GW,1729307039
373,kyzyl-mazhalyk,51.1333,90.6,0.19,95,100,0.28,RU,1729307040
374,khandyga,62.6667,135.6,-13.67,66,49,1.48,RU,1729307042
375,olinda,-8.0089,-34.8553,26.85,74,75,2.57,BR,1729306930
376,laghouat,33.8,2.8651,12.73,67,2,5.81,DZ,1729307044
377,hirara,24.8,125.2833,30.92,84,40,4.63,JP,1729307045
378,itanagar,27.1,93.6167,24.06,55,100,1.6,IN,1729306921
379,vytegra,61.0064,36.4481,4.49,75,86,3.38,RU,1729307048
380,langtoucun,40.0261,124.3286,6.42,29,100,11.11,CN,1729307049
381,thurso,58.5927,-3.5259,12.14,84,100,3.96,GB,1729307050
382,jiuquan,39.7432,98.5174,9.21,45,92,2.35,CN,1729307051
383,richards bay,-28.783,32.0377,19.34,87,100,3.05,ZA,1729306803
384,garden city,42.3256,-83.331,10.97,81,20,0.0,US,1729307054
385,broken hill,-31.95,141.4333,21.32,25,2,7.12,AU,1729306953
386,puerto morazan,12.8504,-87.1717,24.26,100,100,0.65,NI,1729307057
387,holly springs,35.6513,-78.8336,9.83,87,0,0.45,US,1729307058
388,camacupa,-12.0167,17.4833,17.57,86,100,0.87,AO,1729306867
389,okha,53.5739,142.9478,2.19,55,100,9.53,RU,1729307061
390,demyansk,57.643,32.466,3.07,94,55,1.83,RU,1729307062
391,kingscliff,-28.2667,153.5667,29.97,78,21,8.75,AU,1729307063
392,kalmunai,7.4167,81.8167,27.73,77,93,1.27,LK,1729307064
393,sisimiut,66.9395,-53.6735,-3.76,68,9,4.34,GL,1729307065
394,vilyuysk,63.7553,121.6247,-11.29,88,97,0.61,RU,1729307067
395,vershino-darasunskiy,52.35,115.5167,-3.65,26,5,3.59,RU,1729307068
396,raja,8.4596,25.678,21.3,93,100,2.05,SS,1729307069
397,sola,-13.8833,167.55,25.64,69,58,3.33,VU,1729306874
398,zalingei,12.9096,23.4741,27.23,36,99,0.81,SD,1729307071
399,ust'-barguzin,53.45,108.9833,-3.33,43,1,2.97,RU,1729307073
400,altamira,-3.2033,-52.2064,26.58,59,7,1.31,BR,1729306796
401,rechka-vydrino,51.485,104.8461,5.06,51,22,3.17,RU,1729307075
402,jiazi,22.8779,116.067,28.89,68,16,2.87,CN,1729307076
403,vryburg,-26.9566,24.7284,12.44,33,0,1.77,ZA,1729307077
404,challapata,-18.9,-66.7667,11.8,17,16,3.56,BO,1729307078
405,daru,-9.0763,143.2092,28.43,74,98,5.28,PG,1729307080
406,haiku-pauwela,20.9219,-156.3051,28.01,65,20,9.83,US,1729307081
407,jinchang,38.4953,102.1739,10.9,68,100,3.17,CN,1729307082
408,kribi,2.95,9.9167,24.83,88,100,0.96,CM,1729307083
409,lerwick,60.1545,-1.1494,11.33,96,100,9.21,GB,1729307084
410,ataq,14.5377,46.8319,22.19,65,90,1.61,YE,1729307086
411,halifax,44.6453,-63.5724,7.0,90,5,2.06,CA,1729306640
412,eaton rapids,42.5092,-84.6558,7.05,87,0,0.0,US,1729307088
413,nova vicosa,-17.8919,-39.3719,24.31,87,100,4.54,BR,1729307089
414,ginir,7.1333,40.7,14.52,76,94,2.55,ET,1729307090
415,whitefish,48.4111,-114.3376,7.23,54,100,2.57,US,1729307044
416,yoloten,37.2989,62.3597,21.04,25,4,4.25,TM,1729307093
417,karratha,-20.7377,116.8463,28.89,47,0,5.75,AU,1729307094
418,dzhangala,49.2167,50.3333,7.28,92,79,3.4,KZ,1729307095
419,akureyri,65.6835,-18.0878,8.96,61,75,2.06,IS,1729307096
420,chibougamau,49.9168,-74.3659,10.79,54,0,4.63,CA,1729307098
421,ad dilam,23.9915,47.1627,24.59,39,30,1.89,SA,1729307099
422,san antonio de pale,-1.4014,5.6325,25.57,72,75,2.91,GQ,1729307100
423,guerrero negro,27.9769,-114.0611,18.26,74,0,5.84,MX,1729307101
424,basse santa su,13.31,-14.2137,25.05,84,100,1.69,GM,1729307102
425,barabinsk,55.3571,78.357,0.99,63,98,2.2,RU,1729307105
426,palmer,42.1584,-72.3287,7.13,77,0,0.65,US,1729307106
427,madalena,41.2162,-8.3345,16.42,96,100,2.33,PT,1729307107
428,santana,-0.0583,-51.1817,27.1,89,20,3.09,BR,1729307108
429,qulsary,46.9531,54.0198,11.44,85,100,5.22,KZ,1729307109
430,vila franca do campo,37.7167,-25.4333,21.23,99,99,6.0,PT,1729307111
431,juan griego,11.0817,-63.9655,29.07,84,5,6.17,VE,1729307112
432,rakops,-21.0167,24.3333,23.17,39,65,2.8,BW,1729307114
433,san carlos del zulia,9.0,-71.9135,25.81,84,91,0.9,VE,1729307116
434,dzilam gonzalez,21.2833,-88.9333,25.12,89,100,3.9,MX,1729307117
435,gantang,26.92,119.6333,28.24,74,91,1.11,CN,1729307118
436,paita,-5.0892,-81.1144,17.58,87,92,4.81,PE,1729307119
437,paphos,34.7667,32.4167,17.88,52,40,2.57,CY,1729307120
438,uttar char fasson,22.2332,90.7132,28.28,75,15,3.97,BD,1729307122
439,vilyuchinsk,52.9306,158.4028,5.15,80,100,0.09,RU,1729307123
440,bathsheba,13.2167,-59.5167,29.34,84,40,5.66,BB,1729307124
441,sunnyside,46.3237,-120.0087,14.26,54,100,1.54,US,1729307125
442,ulsteinvik,62.3432,5.8487,13.5,76,0,4.87,NO,1729307127
443,seguela,7.9611,-6.6731,21.76,98,100,0.91,CI,1729307128
444,weno,7.4515,151.8468,28.97,89,100,2.06,FM,1729307129
445,murghob,38.1702,73.9667,-0.48,43,94,0.98,TJ,1729307131
446,neyyattinkara,8.4,77.0833,27.92,72,93,1.42,IN,1729307132
447,seven pagodas,12.6264,80.1722,28.09,73,59,0.92,IN,1729307133
448,svetlyy,54.675,20.1347,8.32,57,15,5.69,RU,1729307134
449,maralal,1.0968,36.698,15.99,84,56,0.6,KE,1729307135
450,wuwei,37.9281,102.6414,12.18,65,100,3.81,CN,1729307137
451,la ronge,55.1001,-105.2842,5.14,65,0,2.57,CA,1729306938
452,port blair,11.6667,92.75,28.02,83,75,1.03,IN,1729307140
453,suva,-18.1416,178.4415,31.71,55,40,6.17,FJ,1729307141
454,ichihara,35.5167,140.0833,28.06,78,100,8.04,JP,1729307143
455,luchegorsk,46.4764,134.2569,0.38,40,53,8.49,RU,1729307144
456,forked river,39.8398,-74.1901,5.14,81,0,0.0,US,1729306960
457,inhambane,-23.865,35.3833,19.89,77,1,3.68,MZ,1729307146
458,pasil,17.3833,121.1333,25.9,52,14,2.46,PH,1729307147
459,kismayo,-0.3582,42.5454,25.29,81,82,5.33,SO,1729307148
460,ust-tsilma,65.441,52.1498,6.21,89,100,4.24,RU,1729307150
461,huanggang,23.677,116.9996,29.5,68,27,1.34,CN,1729307151
462,la sarre,48.8002,-79.1996,9.73,58,2,4.27,CA,1729307152
463,xinyuan,37.3,99.0,2.7,74,100,1.24,CN,1729307153
464,nadi,-17.8,177.4167,27.0,61,40,8.75,FJ,1729307154
465,gereida,11.2811,25.1414,26.13,59,34,2.64,SD,1729307156
466,beruniy,41.6911,60.7525,9.98,66,0,3.09,UZ,1729307157
467,port douglas,-16.4833,145.4667,26.72,61,3,3.5,AU,1729307159
468,concordia,-31.393,-58.0209,18.21,84,0,1.34,AR,1729307127
469,minas de marcona,-15.2119,-75.1103,13.16,80,10,3.19,PE,1729307162
470,nova sintra,14.8667,-24.7167,27.94,74,100,1.54,CV,1729307163
471,levuka,50.1834,-105.4011,3.84,30,8,7.35,CA,1729307164
472,mirador,-6.3708,-44.3631,22.12,90,78,0.86,BR,1729307165
473,apac,1.9756,32.5386,18.29,93,88,0.13,UG,1729307166
474,adis zemen,12.1167,37.7833,13.44,64,8,2.13,ET,1729307167
475,chelbasskaya,45.9792,39.3719,7.55,72,100,2.94,RU,1729307169
476,ugoofaaru,5.6667,73.0,28.17,73,98,5.61,MV,1729307170
477,palikir - national government center,6.9248,158.1611,31.47,70,75,5.14,FM,1729307171
478,plaquemine,30.2891,-91.2343,16.08,82,100,2.73,US,1729307172
479,walvis bay,-22.9575,14.5053,12.54,92,0,1.32,NA,1729307174
480,lishui,28.4604,119.9103,20.07,97,100,2.99,CN,1729307175
481,muisne,0.6,-80.0333,24.38,85,100,3.23,EC,1729307176
482,heiligenhafen,54.3667,10.9833,10.42,94,100,4.57,DE,1729307177
483,bloemfontein,-29.1211,26.214,8.71,66,5,1.03,ZA,1729306890
484,puerto deseado,-47.7503,-65.8938,13.79,43,2,5.7,AR,1729307180
485,levski,43.3667,25.1333,5.47,57,0,1.8,BG,1729307182
486,la'ie,21.6477,-157.9253,28.98,70,29,5.11,US,1729307183
487,enshi,30.3,109.4833,20.36,79,100,1.98,CN,1729307184
488,kenai,60.5544,-151.2583,2.86,37,0,3.09,US,1729307186
489,tongchuanshi,35.0806,109.0897,12.4,90,100,6.1,CN,1729307187
490,angaur state,6.906,134.13,29.02,75,99,6.15,PW,1729307188
491,rifle,39.5347,-107.7831,9.33,80,0,0.0,US,1729307190
492,vargashi,55.3556,65.8467,0.09,78,22,1.75,RU,1729307191
493,bargaal,11.2864,51.0773,26.51,77,84,3.03,SO,1729307193
494,as sulayyil,20.4607,45.5779,22.93,37,0,2.79,SA,1729307194
495,ketchikan,55.3422,-131.6461,7.26,93,100,0.0,US,1729307195
496,al hazm,16.1641,44.7769,22.55,22,27,2.06,YE,1729307196
497,salaverry,-8.2333,-78.9667,16.21,76,100,2.14,PE,1729307198
498,dingli,35.8614,14.3822,22.67,88,75,14.4,MT,1729307199
499,alpinopolis,-20.8636,-46.3881,19.57,88,100,0.75,BR,1729307015
500,menongue,-14.6585,17.691,18.4,82,100,1.05,AO,1729307201
501,darhan,49.4867,105.9228,3.0,28,45,4.82,MN,1729307202
502,eyl,7.9803,49.8164,25.71,83,70,5.19,SO,1729306934
503,tobruk,32.0836,23.9764,20.27,67,0,4.29,LY,1729307205
504,netrakona,24.8833,90.7167,26.6,74,5,2.19,BD,1729307206
505,murzuq,25.9155,13.9184,22.3,35,7,3.24,LY,1729307207
506,manay,7.215,126.5397,29.61,67,98,2.3,PH,1729307208
507,yatou,37.15,122.3833,10.31,53,10,12.85,CN,1729307209
508,papao,-17.75,-149.55,28.7,79,100,6.39,PF,1729307211
509,xiaoweizhai,26.1903,107.5125,21.93,86,90,1.74,CN,1729307212
510,akdepe,42.0551,59.3788,14.88,30,100,4.53,TM,1729307213
511,pyin oo lwin,22.0333,96.4667,23.38,75,27,0.48,MM,1729307214
512,roha,18.4333,73.1167,25.88,87,100,1.03,IN,1729307215
513,ebon,4.582,168.6964,29.34,72,4,5.04,MH,1729307217
514,sinmak,38.4167,126.2333,13.24,71,41,4.14,KP,1729307218
515,joshimath,30.5667,79.5667,13.86,51,3,1.5,IN,1729307219
516,saint-philippe,-21.3585,55.7679,23.24,88,71,2.06,RE,1729307220
517,portland,45.5234,-122.6762,13.3,78,100,4.02,US,1729307221
518,civitavecchia,42.0933,11.7967,15.9,99,100,0.2,IT,1729306929
519,coronel oviedo,-25.4167,-56.45,19.04,99,92,1.28,PY,1729307224
520,altay,47.8667,88.1167,-1.4,100,100,1.86,CN,1729307225
521,victoria point,-27.5833,153.3,29.78,72,26,0.45,AU,1729307226
522,merizo village,13.2658,144.6691,29.43,86,100,6.01,GU,1729307227
523,salekhard,66.53,66.6019,0.31,99,100,4.54,RU,1729307229
524,kimbe,-5.5502,150.1429,30.38,67,100,2.31,PG,1729307230
525,vidalia,32.2177,-82.4135,13.97,54,0,3.09,US,1729307049
526,lamu,-2.2717,40.902,23.37,89,86,2.23,KE,1729307232
527,puerto aysen,-45.4,-72.7,8.22,96,100,1.98,CL,1729307233
528,alesund,62.4723,6.1549,7.08,87,0,3.09,NO,1729307234
529,morinville,53.8001,-113.652,7.55,46,100,3.25,CA,1729307236
530,mar del plata,-38.0023,-57.5575,15.01,55,0,2.06,AR,1729306628
531,island harbour,50.724,-1.2758,15.57,92,100,3.58,GB,1729307238
532,hami,42.8,93.45,10.94,48,93,6.27,CN,1729307239
533,barra de sao francisco,-18.755,-40.8908,22.8,85,93,2.25,BR,1729307240
534,mhamid,29.82,-5.72,23.7,37,0,1.98,MA,1729307242
535,saurimo,-9.6608,20.3916,17.47,96,62,1.01,AO,1729307243
536,mbandaka,0.0487,18.2603,22.01,95,92,1.44,CD,1729307244
537,gustavsberg,59.3268,18.3898,10.1,93,100,5.11,SE,1729307245
538,yuzhno-kurilsk,44.0306,145.8556,15.51,98,100,5.12,RU,1729307247
539,mejit,10.2753,170.8646,28.41,77,100,5.53,MH,1729307248
540,gurupi,-11.7292,-49.0686,24.01,80,97,1.84,BR,1729306615
541,chizhou,30.6578,117.4831,17.27,83,100,6.28,CN,1729307250
542,usol'ye,59.4268,56.6808,0.18,91,84,3.03,RU,1729307251
543,nagqu,31.5,92.0,2.42,41,46,2.56,CN,1729307253
544,westport,41.1415,-73.3579,12.07,68,0,2.06,US,1729307092
545,hyesan,41.4017,128.1778,2.96,21,2,4.64,KP,1729307255
546,ad dabbah,18.05,30.95,24.48,29,0,4.04,SD,1729307256
547,itoman,26.1247,127.6694,31.21,70,40,3.09,JP,1729307257
548,lata,40.1629,-8.3327,13.84,94,100,1.32,PT,1729307258
549,isabela,6.7085,121.9711,25.87,92,100,3.54,PH,1729307260
550,santa ana,33.7456,-117.8678,19.21,63,0,3.09,US,1729307261
551,choctaw,35.4976,-97.2689,17.75,36,0,3.6,US,1729307210
552,bengkulu,-3.8004,102.2655,27.65,65,12,1.69,ID,1729307263
553,happy valley-goose bay,53.3168,-60.3315,-0.47,80,2,2.5,CA,1729307264
554,amungan,15.3652,119.9582,30.35,71,42,3.68,PH,1729307265
555,ubinskoye,55.3068,79.6802,0.67,63,95,2.39,RU,1729307267
556,kuluncak,38.8828,37.6728,1.3,75,48,2.6,TR,1729307268
557,huangmei,30.1924,116.025,21.59,61,79,6.5,CN,1729307269
558,dunedin,-45.8742,170.5036,13.08,77,100,7.58,NZ,1729307270
559,makokou,0.5738,12.8642,21.17,100,100,1.47,GA,1729307272
560,chambersburg,39.9376,-77.6611,10.31,72,0,0.89,US,1729307223
561,aripuana,-9.1667,-60.6333,23.84,82,25,1.22,BR,1729307275
562,kudahuvadhoo,2.6708,72.8944,28.19,70,20,5.07,MV,1729307276
563,akjoujt,19.6969,-14.4164,30.27,24,85,10.24,MR,1729307278
564,usinsk,65.9939,57.5281,2.96,96,100,7.93,RU,1729307279
565,tromso,69.6496,18.957,10.01,93,100,3.6,NO,1729307280
566,whitby,54.4877,-0.615,13.41,88,100,1.79,GB,1729306986
567,maxixe,-23.8597,35.3472,19.23,78,0,3.29,MZ,1729307282
568,newman,37.3138,-121.0208,17.8,27,19,2.68,US,1729307283
569,laguna,38.421,-121.4238,21.1,22,0,7.72,US,1729307031
570,beaudesert,-27.9833,152.9833,34.4,46,56,6.71,AU,1729307286
571,cole harbour,44.6724,-63.4751,5.66,89,4,1.88,CA,1729307287
572,badiyah,22.45,58.8,28.1,62,30,2.08,OM,1729307288
573,amalapuram,16.5833,82.0167,28.64,80,68,1.99,IN,1729307233
574,thayetmyo,19.3167,95.1833,29.8,72,68,1.87,MM,1729307291
575,ribeira brava,32.65,-17.0667,20.35,76,27,0.63,PT,1729307292
576,ban na san,8.8004,99.3637,24.2,95,100,3.27,TH,1729307293
577,al mijlad,11.0333,27.7333,28.25,53,38,2.02,SD,1729307294
578,guatrache,-37.6678,-63.5302,18.27,43,94,5.61,AR,1729307295
579,santarem,-2.4431,-54.7083,28.07,74,0,2.06,BR,1729307283
580,dergachi,51.2328,48.7659,7.14,86,100,6.75,RU,1729307298
581,bumba,2.1833,22.4667,21.61,97,100,0.41,CD,1729307299
582,north platte,41.1239,-100.7654,11.94,82,100,7.2,US,1729307300
583,choele choel,-39.2667,-65.6833,22.64,45,89,3.66,AR,1729307301
584,san sebastian de la gomera,28.0916,-17.1133,20.2,72,0,1.03,ES,1729307302
585,sittwe,20.15,92.9,28.13,69,59,2.08,MM,1729307304
